[
  {
    "name": "Consulat Général de France",
    "lat": 46.80523007714469, 
    "lng": -71.21929141440904,
    "color": "#00007A",
    "description": "Pour refaire le passeport français"
  },
  {
    "name": "Centre Service Canada",
    "lat": 46.84176819324674, 
    "lng": -71.21342903196759,
    "color": "#00007A",
    "description": "Démarches administratives indispensables (NAS, permis, etc.)."
  },
  {
    "name": "Centre Service Canada",
    "lat": 46.76705579888662, 
    "lng": -71.3100401575092,
    "color": "#00007A",
    "description": "Démarches administratives indispensables (NAS, permis, etc.)."
  },
  {
    "name": "Centre Service Canada",
    "lat": 46.79357502275033, 
    "lng": -71.17680791661226 ,
    "color": "#00007A",
    "description": "Démarches administratives indispensables (NAS, permis, etc.)."
  },
  {
    "name": "Aéroport international Jean-Lesage de Québec (YQB)",
    "lat": 46.79087481189469, 
    "lng": -71.38859382653179, 
    "color": "#00007A",
    "description": "Aéroport"
  },



  {
    "name": "Fairmont Le Château Frontenac",
    "lat": 46.812013064736966, 
    "lng": -71.20521840906478 ,
    "color": "#0099FF",
    "description": "Château de la ville"
  },
  {
    "name": "Glissade de la Terrasse Dufferin Terrace Toboggan Slide",
    "lat": 46.80957049021764, 
    "lng": -71.20425857595953,
    "color": "#0099FF",
    "description": "Piste de luge (à faire en hiver)"
  },


  {
    "name": "Uniqlo Place Ste Foy",
    "lat": 46.77296242201724, 
    "lng": -71.28041386855493 ,
    "color": "#446644",
    "description": "Magasin de vêtements"
  },
  {
    "name": "Uniqlo Galeries de la Capitale",
    "lat": 46.83063469861718, 
    "lng": -71.30079810942723, 
    "color": "#446644",
    "description": "Magasin de vêtements"
  },
  {
    "name": "Decathlon PEPS Université Laval",
    "lat": 46.78459320238817, 
    "lng": -71.27694366855455,
    "color": "#446644",
    "description": "Magasin de sports"
  },
  {
    "name": "Decathlon Sainte-Foy",
    "lat": 46.778857268537976, 
    "lng": -71.3465662556826,
    "color": "#446644",
    "description": "Magasin de sports"
  },


  {
    "name": "Poutineville Vieux Québec",
    "lat": 46.81172490892407, 
    "lng": -71.21570656968328,
    "color": "#8A0000",
    "description": "Restaurants de poutine"
  },
  {
    "name": "Poutineville Saint-Roch",
    "lat": 46.8156264179888, 
    "lng": -71.21985823078998,
    "color": "#8A0000",
    "description": "Magasin de vêtements"
  },


  {
    "name": "Auberge Internationale de Québec",
    "lat": 46.81235403915732, 
    "lng": -71.21134670168269,
    "color": "#D6FF00",
    "description": "Auberge de jeunesse"
  },
  {
    "name": "Auberge Jeunesse québec central",
    "lat": 46.81562773073626, 
    "lng": -71.22105020068939 ,
    "color": "#D6FF00",
    "description": "Auberge de jeunesse"
  },
  {
    "name": "Résidences - Université Laval",
    "lat": 46.78056638232142, 
    "lng": -71.26720703318522 ,
    "color": "#D6FF00",
    "description": "Résidence universitaire"
  }

]