[
  {
    "name": "Consulat Général de France",
    "lat": 46.80526225013921, 
    "lng": -71.21922051659179,
    "color": "#00007A",
    "description": "Pour refaire le passeport français"
  },
  {
    "name": "Centre Service Canada",
    "lat": 46.84603818937798,  
    "lng": -71.20290157472633,
    "color": "#00007A",
    "description": "Démarches administratives indispensables (NAS, permis, etc.)."
  },
  {
    "name": "Centre Service Canada",
    "lat": 46.767686602952004,
    "lng": -71.30900636737307,
    "color": "#00007A",
    "description": "Démarches administratives indispensables (NAS, permis, etc.)."
  },
  {
    "name": "Centre Service Canada",
    "lat": 46.79778545185828, 
    "lng": -71.14919672103669,
    "color": "#00007A",
    "description": "Démarches administratives indispensables (NAS, permis, etc.)."
  },
  {
    "name": "Aéroport international Jean-Lesage de Québec (YQB)",
    "lat": 46.79638712858416, 
    "lng": -71.3735255058286,
    "color": "#00007A",
    "description": "Aéroport"
  },



  {
    "name": "Fairmont Le Château Frontenac",
    "lat": 46.81245658655039, 
    "lng": -71.20456545556023,
    "color": "#0099FF",
    "description": "Château de la ville"
  },
  {
    "name": "Glissade de la Terrasse Dufferin Terrace Toboggan Slide",
    "lat": 46.809630450880675, 
    "lng": -71.20388742123698,
    "color": "#0099FF",
    "description": "Piste de luge (à faire en hiver)"
  },


  {
    "name": "Uniqlo Place Ste Foy",
    "lat": 46.775490734707596, 
    "lng": -71.27061041036568,
    "color": "#446644",
    "description": "Magasin de vêtements"
  },
  {
    "name": "Uniqlo Galeries de la Capitale",
    "lat": 46.831055135036216, 
    "lng": -71.29952928338618,
    "color": "#446644",
    "description": "Magasin de vêtements"
  },
  {
    "name": "Decathlon PEPS Université Laval",
    "lat": 46.786496430400526, 
    "lng": -71.26941986780774,
    "color": "#446644",
    "description": "Magasin de sports"
  },
  {
    "name": "Decathlon Sainte-Foy",
    "lat": 46.780549222586586, 
    "lng": -71.33192795921153,
    "color": "#446644",
    "description": "Magasin de sports"
  },


  {
    "name": "Poutineville Vieux Québec",
    "lat": 46.811945451601034, 
    "lng": -71.21498331295281,
    "color": "#8A0000",
    "description": "Restaurants de poutine"
  },
  {
    "name": "Poutineville Saint-Roch",
    "lat": 46.81579925155205, 
    "lng": -71.21917031086659,
    "color": "#8A0000",
    "description": "Magasin de vêtements"
  },


  {
    "name": "Auberge Internationale de Québec",
    "lat": 46.81235403915732, 
    "lng": -71.21134670168269,
    "color": "#D6FF00",
    "description": "Auberge de jeunesse"
  },
  {
    "name": "Auberge Jeunesse québec central",
    "lat": 46.81562773073626, 
    "lng": -71.22105020068939 ,
    "color": "#D6FF00",
    "description": "Auberge de jeunesse"
  },
  {
    "name": "Résidences - Université Laval",
    "lat": 46.78056638232142, 
    "lng": -71.26720703318522 ,
    "color": "#D6FF00",
    "description": "Résidence universitaire"
  }

]